[
  {
    "displayAddress": "3900 W. Manchester Blvd., Inglewood, CA 90305",
    "extId": "a2ut0000006a8nfAAA",
    "location": {
      "lng": -118.342,
      "lat": 33.9581
    },
    "name": "Mega POD 2 – The Forum - 2nd Dose Only Pfizer",
    "vaccineData": "WyJhM3F0MDAwMDAwMDFBZ1VBQVUiXQ=="
  },
  {
    "displayAddress": "3900 W. Manchester Blvd., Inglewood, CA 90305",
    "extId": "a2ut0000006a8onAAA",
    "location": {
      "lng": -118.342,
      "lat": 33.9581
    },
    "name": "Mega POD 2 – The Forum - 1st & 2nd Dose Pfizer",
    "vaccineData": "WyJhM3F0MDAwMDAwMDFBZExBQVUiXQ=="
  },
  {
    "displayAddress": "12830 Columbia Way, Downey, CA 90242",
    "extId": "a2ut0000006a8oxAAA",
    "location": {
      "lng": -118.133,
      "lat": 33.915
    },
    "name": "Mega POD 4 - LA County Office of Education -  1st & 2nd Dose Pfizer",
    "vaccineData": "WyJhM3F0MDAwMDAwMDFBZExBQVUiXQ=="
  },
  {
    "displayAddress": "12830 Columbia Way, Downey, CA 90242",
    "extId": "a2ut0000006a8nbAAA",
    "location": {
      "lng": -118.133,
      "lat": 33.915
    },
    "name": "Mega POD 4 - LA County Office of Education -  2nd Dose Only Pfizer",
    "vaccineData": "WyJhM3F0MDAwMDAwMDFBZ1VBQVUiXQ=="
  },
  {
    "displayAddress": "18343 Plummer Street, Los Angeles, CA 91325",
    "extId": "a2ut0000006a8osAAA",
    "location": {
      "lng": -118.533,
      "lat": 34.243
    },
    "name": "Mega POD 3 – CSUN - 1st & 2nd Dose Pfizer",
    "vaccineData": "WyJhM3F0MDAwMDAwMDFBZExBQVUiXQ=="
  },
  {
    "displayAddress": "18343 Plummer Street, Los Angeles, CA 91325",
    "extId": "a2ut0000006a8nkAAA",
    "location": {
      "lng": -118.533,
      "lat": 34.243
    },
    "name": "Mega POD 3 – CSUN - 2nd Dose Only Pfizer",
    "vaccineData": "WyJhM3F0MDAwMDAwMDFBZ1VBQVUiXQ=="
  },
  {
    "displayAddress": "26101 Magic Mountain Pkwy, Valencia, CA 91355",
    "extId": "a2ut0000006a8ngAAA",
    "location": {
      "lng": -118.589,
      "lat": 34.4214
    },
    "name": "Mega POD 5 – Six Flags Magic Mountain - 2nd Dose Only Pfizer",
    "vaccineData": "WyJhM3F0MDAwMDAwMDFBZ1VBQVUiXQ=="
  },
  {
    "displayAddress": "26101 Magic Mountain Pkwy, Valencia, CA 91355",
    "extId": "a2ut0000006a8p2AAA",
    "location": {
      "lng": -118.589,
      "lat": 34.4214
    },
    "name": "Mega POD 5 – Six Flags Magic Mountain - 1st & 2nd Dose Pfizer",
    "vaccineData": "WyJhM3F0MDAwMDAwMDFBZExBQVUiXQ=="
  },
  {
    "displayAddress": "2352 Arrow Hwy (Gate 15), Pomona, CA 91768",
    "extId": "a2ut0000006a8oiAAA",
    "location": {
      "lng": -117.767,
      "lat": 34.0959
    },
    "name": "Mega POD 1 – Pomona Fairplex - 1st & 2nd Dose Pfizer",
    "vaccineData": "WyJhM3F0MDAwMDAwMDFBZExBQVUiXQ=="
  },
  {
    "displayAddress": "2352 Arrow Hwy (Gate 15), Pomona, CA 91768",
    "extId": "a2ut0000006a8naAAA",
    "location": {
      "lng": -117.767,
      "lat": 34.0959
    },
    "name": "Mega POD 1 – Pomona Fairplex -2nd Dose Only Pfizer",
    "vaccineData": "WyJhM3F0MDAwMDAwMDFBZ1VBQVUiXQ=="
  }
]